City_ID,City,Lat,Lng,Max Temp,Humidity,Cloudiness,Wind Speed
0,Mataura,-46.1927,168.8643,56.48,97,96,4.36
1,Isangel,-19.55,169.2667,77.95,67,61,14.23
2,Hilo,19.7297,-155.09,81.28,82,100,10.36
3,Lorengau,-2.0226,147.2712,85.91,67,100,15.26
4,Menongue,-14.6585,17.691,58.32,71,47,2.48
5,Derzhavinsk,51.1,66.3167,55.81,28,81,23.42
6,Dingle,10.9995,122.6711,90.54,48,49,12.84
7,Alta Floresta,-9.8756,-56.0861,74.53,80,61,3.33
8,Portomaggiore,44.6985,11.8068,58.01,91,53,6.26
9,Itarema,-2.9248,-39.9167,77.09,87,100,6.35
10,Namatanai,-3.6667,152.4333,84.78,70,91,13.11
11,Fort Frances,48.5999,-93.4003,49.15,70,100,4.61
12,Ostrovnoy,68.0531,39.5131,30.56,81,80,15.35
13,Ushuaia,-54.8,-68.3,42.46,75,100,27.63
14,Kruisfontein,-34.0033,24.7314,53.58,70,78,6.06
15,Bluff,-46.6,168.3333,56.8,76,95,12.88
16,Belmonte,-15.8631,-38.8828,72.84,90,88,9.86
17,Qaanaaq,77.484,-69.3632,18.75,68,99,7.63
18,Saskylakh,71.9167,114.0833,14.36,88,77,14.16
19,Hermanus,-34.4187,19.2345,57.31,75,94,4.88
20,Dikson,73.5069,80.5464,32.7,98,100,18.37
21,Tazovskiy,67.4667,78.7,33.98,100,100,12.35
22,Vaini,-21.2,-175.2,77.16,69,20,14.97
23,Punta Arenas,-53.15,-70.9167,44.71,81,75,28.77
24,Otjimbingwe,-22.35,16.1333,61.29,26,0,7.92
25,Avarua,-21.2078,-159.775,82.45,83,75,6.91
26,Albany,42.6001,-73.9662,46.81,58,69,3.47
27,Cayenne,4.9333,-52.3333,81.09,1,54,1.01
28,Veraval,20.9,70.3667,86.22,63,4,16.04
29,Cherskiy,68.75,161.3,32.86,94,57,16.64
30,Rikitea,-23.1203,-134.9692,76.21,75,28,16.24
31,Pemangkat,1.1667,108.9667,84.45,68,100,6.51
32,Shubarshi,48.5872,57.1869,55.26,47,100,14.5
33,Busselton,-33.65,115.3333,67.68,58,0,6.62
34,Balarampur,23.1167,86.2167,88.21,41,1,6.96
35,Umm Lajj,25.0213,37.2685,82.6,35,64,10.71
36,New Norfolk,-42.7826,147.0587,58.91,47,44,1.83
37,Santa Lucia,27.9117,-15.5407,58.32,77,20,17.27
38,Dandong,40.1292,124.3947,73.44,20,1,1.99
39,Pitimbu,-7.4706,-34.8086,73.99,83,90,11.45
40,Barrow,71.2906,-156.7887,33.82,80,100,12.66
41,Wanning,18.8003,110.3967,83.79,71,87,6.33
42,Luderitz,-26.6481,15.1594,58.78,42,30,5.41
43,Hobart,-42.8794,147.3294,59.25,58,20,8.05
44,Bambous Virieux,-20.3428,57.7575,76.21,88,20,3.44
45,Bethel,41.3712,-73.414,49.01,48,0,6.91
46,Rawson,-43.3002,-65.1023,55.36,44,0,7.56
47,Srednekolymsk,67.45,153.6833,38.08,89,63,14.85
48,Monterey,36.2505,-121.2516,45.18,72,4,8.9
49,Coruripe,-10.1256,-36.1756,74.75,79,6,6.76
50,Aksu,41.1231,80.2644,81.25,22,0,4.79
51,Korla,41.7597,86.1469,76.53,30,0,8.08
52,Codrington,-38.2667,141.9667,61.72,47,16,0.6
53,Ngunguru,-35.6167,174.5,65.98,73,100,10.51
54,Hasaki,35.7333,140.8333,59.4,74,100,12.66
55,Kapaa,22.0752,-159.319,78.78,85,100,14.97
56,Nikolskoye,59.7035,30.7861,42.71,74,3,5.61
57,La Ronge,55.1001,-105.2842,39.45,65,40,2.3
58,Carnarvon,-24.8667,113.6333,78.87,57,38,8.05
59,Pilar,-9.5972,-35.9567,71.53,93,24,2.64
60,Danville,36.586,-79.395,48.85,88,100,3.44
61,Kahone,14.15,-16.0333,74.82,54,58,4.92
62,Colac,-38.3333,143.5833,58.17,49,10,2.73
63,Taksimo,56.3444,114.8794,39.88,41,100,10.65
64,Mar Del Plata,-38.0023,-57.5575,60.87,78,0,8.01
65,Kirensk,57.7853,108.1119,36.88,61,100,9.62
66,Ponta Do Sol,32.6667,-17.1,64.0,42,26,4.74
67,Tasiilaq,65.6145,-37.6368,32.16,58,95,0.45
68,Soe,-9.8607,124.284,80.8,49,7,10.36
69,Yellowknife,62.456,-114.3525,27.12,68,100,31.07
70,Bubaque,11.2833,-15.8333,76.39,77,84,8.16
71,Grindavik,63.8424,-22.4338,46.35,93,75,12.66
72,Piedras,4.5383,-74.8818,75.78,80,99,2.57
73,Vardo,70.3705,31.1107,31.98,80,75,21.85
74,Abu Zabad,12.35,29.25,78.85,10,95,4.52
75,Saldanha,-33.0117,17.9442,55.72,85,38,4.18
76,Vila Franca Do Campo,37.7167,-25.4333,59.2,87,82,2.37
77,Emba,48.8264,58.1442,57.06,38,99,18.97
78,Neiafu,-18.65,-173.9833,81.28,74,20,6.91
79,Pevek,69.7008,170.3133,26.22,77,99,4.18
80,Puerto Baquerizo Moreno,-0.9,-89.6,71.33,90,91,7.9
81,Palatka,29.6486,-81.6376,71.06,74,64,5.37
82,Tuktoyaktuk,69.4541,-133.0374,37.4,75,75,11.5
83,Camacha,33.0833,-16.3333,58.42,82,40,12.66
84,Cape Town,-33.9258,18.4232,54.12,89,57,1.01
85,Port Lincoln,-34.7333,135.8667,64.44,50,100,3.09
86,Port Elizabeth,-33.918,25.5701,54.32,98,0,3.44
87,Sumter,28.7086,-82.0831,73.35,77,6,9.89
88,Jamestown,42.097,-79.2353,55.04,35,0,9.22
89,Provideniya,64.3833,-173.3,33.13,92,99,9.64
90,Waipawa,-41.4122,175.5153,60.71,71,100,8.99
91,Pangnirtung,66.1451,-65.7125,18.73,87,84,5.82
92,Butaritari,3.0707,172.7902,82.0,74,11,18.03
93,Rio Gallegos,-51.6226,-69.2181,42.85,75,20,14.97
94,Chifeng,42.2683,118.9636,70.95,11,0,14.79
95,Ban Phaeo,13.5907,100.1075,87.03,89,99,6.71
96,Lahij,13.1667,44.5833,79.14,68,1,1.39
97,Sinnamary,5.3833,-52.95,77.83,86,82,10.09
98,Weatherford,32.7593,-97.7972,84.09,68,0,4.0
99,Palmerston,-12.486,130.9833,93.04,39,0,10.36
100,Syriam,16.7722,96.2378,86.11,74,75,5.75
101,Kozhanka,49.9793,29.7381,52.92,92,100,11.59
102,Marawi,7.9986,124.2928,78.84,76,100,4.34
103,Godda,24.8333,87.2167,92.95,41,0,7.99
104,Kulhudhuffushi,6.6221,73.07,85.1,71,100,17.34
105,Souillac,-20.5167,57.5167,75.58,88,20,3.44
106,Ribeira Grande,38.5167,-28.7,63.03,89,98,5.08
107,Lavrentiya,65.5833,-171.0,33.35,88,93,6.78
108,Ormara,25.2088,64.6357,82.33,77,0,14.32
109,Padang,-0.9492,100.3543,89.65,62,44,4.97
110,Talara,-4.5772,-81.2719,68.56,80,100,19.77
111,Sampit,-2.5333,112.95,75.97,98,100,1.52
112,Saint-Philippe,-21.3585,55.7679,76.59,80,38,7.31
113,Iqaluit,63.7506,-68.5145,29.93,80,75,4.61
114,Pipri,19.8,75.5333,96.78,17,100,22.79
115,Tuatapere,-46.1333,167.6833,52.74,88,100,7.83
116,Panaba,21.2833,-88.2667,80.55,78,2,10.54
117,Sabha,27.0377,14.4283,64.98,35,0,10.25
118,Maridi,4.9158,29.4742,67.95,97,100,7.07
119,Guerrero Negro,27.9769,-114.0611,59.27,79,1,18.57
120,Ayan,56.45,138.1667,35.69,78,26,7.52
121,Mahebourg,-20.4081,57.7,77.25,88,20,3.44
122,Shenzhen,22.5455,114.0683,82.35,87,99,2.06
123,Iralaya,15.0,-83.2333,81.05,82,7,12.41
124,Namibe,-15.1961,12.1522,74.25,52,0,8.9
125,Lakes Entrance,-37.8811,147.981,61.16,59,7,4.97
126,Sao Joao Da Barra,-21.6403,-41.0511,68.86,80,50,7.36
127,Sao Luis De Montes Belos,-16.525,-50.3722,66.6,76,26,2.62
128,Kodiak,57.79,-152.4072,47.71,49,0,11.5
129,Abha,18.2164,42.5053,66.02,52,0,0.0
130,Port Alfred,-33.5906,26.891,61.2,80,100,5.99
131,Nogliki,51.8333,143.1667,32.86,99,100,14.72
132,Arraial Do Cabo,-22.9661,-42.0278,72.28,69,46,8.25
133,Tiksi,71.6872,128.8694,16.74,81,22,4.52
134,Quatre Cocos,-20.2078,57.7625,77.09,82,21,6.49
135,Eureka,40.8021,-124.1637,48.92,69,71,1.01
136,Cocorit,27.5833,-109.9667,76.91,28,0,5.93
137,Puerto Ayora,-0.7393,-90.3518,71.29,92,80,4.45
138,Miri,4.4148,114.0089,81.79,84,100,7.4
139,Ballachulish,56.6774,-5.1308,56.41,80,100,5.99
140,Gat,31.61,34.7642,68.4,31,4,4.27
141,Ulety,51.3572,112.4849,37.53,80,100,16.69
142,Balkanabat,39.5108,54.3671,61.05,64,29,11.63
143,Fortuna,40.5982,-124.1573,46.98,93,100,3.44
144,Artesia,33.8658,-118.0831,62.15,67,0,5.75
145,Touros,-5.1989,-35.4608,77.09,87,100,11.56
146,Noyon,49.5833,3.0,48.85,88,0,4.32
147,Oropesa,-13.5928,-71.7719,48.06,76,58,4.61
148,Vysokoye,52.3709,23.3708,44.44,76,42,9.26
149,Victoria,22.2855,114.1577,82.45,77,100,10.0
150,Cabo San Lucas,22.8909,-109.9124,77.5,56,14,14.05
151,Hithadhoo,-0.6,73.0833,84.16,78,99,20.87
152,Georgetown,5.4112,100.3354,87.73,77,20,6.91
153,Lebu,-37.6167,-73.65,55.45,97,100,5.91
154,Nantucket,41.2835,-70.0995,47.01,62,75,20.71
155,Castro,-24.7911,-50.0119,48.97,99,23,4.34
156,San Patricio,28.017,-97.5169,81.18,90,2,13.04
157,Loreto,22.2667,-101.9667,73.76,20,57,13.38
158,Dakar,14.6937,-17.4441,68.88,89,5,16.78
159,Cascais,38.6979,-9.4215,65.55,56,3,3.0
160,Sokolovo-Kundryuchenskiy,47.8354,39.9471,45.75,50,77,4.47
161,Fukue,32.6881,128.8419,70.16,64,0,14.97
162,Burnie,-41.0667,145.9167,60.94,62,98,2.21
163,Hovd,48.0056,91.6419,35.46,51,100,5.5
164,Caravelas,-17.7125,-39.2481,73.87,79,11,8.77
165,Iquique,-20.2208,-70.1431,59.04,73,18,4.27
166,Atuona,-9.8,-139.0333,78.84,75,5,13.87
167,Praia,14.9215,-23.5087,70.34,78,20,13.8
168,Leh,34.1667,77.5833,50.04,37,6,3.13
169,Olafsvik,64.8945,-23.7142,43.43,93,100,16.8
170,Dargaville,-35.9333,173.8833,61.97,93,100,9.84
171,Hobyo,5.3505,48.5268,83.89,74,99,14.23
172,Punta Gorda,26.9298,-82.0454,78.01,78,1,10.0
173,Aykhal,66.0,111.5,18.79,83,100,21.81
174,Petropavlovsk-Kamchatskiy,53.0452,158.6483,39.79,87,75,17.9
175,Gizo,-8.103,156.8419,84.87,72,62,8.08
176,Marsa Matruh,31.3525,27.2453,63.72,90,0,19.3
177,Norman Wells,65.282,-126.8329,37.44,56,75,17.27
178,Lake City,30.1897,-82.6393,68.86,82,0,0.0
179,Aklavik,68.2191,-135.0107,41.16,82,65,4.36
180,Mayumba,-3.432,10.6554,75.83,93,24,6.38
181,Mattru,7.6244,-11.8332,74.03,95,98,0.94
182,Darhan,49.4867,105.9228,44.1,39,61,11.86
183,Hamilton,39.1834,-84.5333,59.85,69,0,8.05
184,Hofn,64.2539,-15.2082,44.13,89,100,2.91
185,Kukuna,9.4,-12.6667,76.3,92,100,3.22
186,Markala,13.7021,-6.0659,88.84,37,84,4.83
187,Okhotsk,59.3833,143.3,40.32,67,83,6.46
188,Lagoa,39.05,-27.9833,61.63,86,91,8.21
189,Menton,43.7765,7.5044,64.11,61,34,8.7
190,Suez,29.9737,32.5263,72.88,21,1,4.41
191,East London,-33.0153,27.9116,56.34,88,0,4.61
192,Aksarka,66.5606,67.7975,35.82,100,100,11.7
193,Zhanaozen,43.3,52.8,55.6,76,100,21.99
194,Santa Catarina De Tepehuanes,25.35,-105.7333,62.29,32,100,8.63
195,Pangody,65.85,74.4859,35.28,100,100,11.14
196,Nanortalik,60.1432,-45.2371,36.39,91,100,2.17
197,Kawalu,-7.3817,108.2082,88.68,59,76,2.53
198,Udachnyy,66.4167,112.4,21.45,52,100,19.42
199,Esperance,-33.8667,121.9,70.11,46,0,5.23
200,Goderich,43.7501,-81.7165,50.32,37,99,11.5
201,Ulladulla,-35.35,150.4667,62.76,66,55,8.14
202,Bakel,14.905,-12.4568,93.04,29,88,8.03
203,Cooma,-36.2333,149.1333,59.52,47,1,2.66
204,Tabou,4.423,-7.3528,76.75,89,99,3.58
205,Lewisburg,35.4492,-86.7889,63.39,95,0,0.0
206,Kurchum,48.5722,83.6542,57.97,28,0,15.12
207,Tahe,52.3333,124.7333,77.14,10,58,13.24
208,San Cristobal,7.7669,-72.225,73.58,98,63,2.82
209,Sitka,57.0531,-135.33,49.89,71,0,14.97
210,Katangli,51.7102,143.2326,32.36,100,100,14.74
211,Mount Gambier,-37.8333,140.7667,62.8,43,37,1.68
212,Oussouye,12.485,-16.5469,73.29,72,72,2.89
213,Shingu,33.7333,135.9833,62.83,92,100,4.45
214,Inhambane,-23.865,35.3833,67.98,94,75,0.0
215,Khatanga,71.9667,102.5,18.36,80,33,14.25
216,Barcelos,41.5388,-8.6151,59.85,77,51,2.01
217,Poum,-20.2333,164.0167,77.74,59,100,13.56
218,Launceston,-41.45,147.1667,60.62,65,100,4.61
219,Cheremukhovo,60.3484,59.9851,56.19,47,7,7.47
220,Baruun-Urt,46.6806,113.2792,73.94,17,87,27.25
221,Bredasdorp,-34.5322,20.0403,54.0,81,100,4.27
222,Nakhon Thai,17.1006,100.8374,84.2,71,96,1.01
223,Ponnampet,12.15,75.9333,71.78,92,100,4.18
224,Eirunepe,-6.6603,-69.8736,70.81,97,10,1.99
225,Portel,-1.9356,-50.8211,73.62,98,100,1.7
226,Vryburg,-26.9566,24.7284,46.72,55,0,4.0
227,Shimoda,34.6667,138.95,64.76,70,29,13.04
228,Chokurdakh,70.6333,147.9167,25.2,88,98,12.26
229,Sorland,67.667,12.6934,40.86,95,100,12.55
230,Hami,42.8,93.45,78.4,22,21,7.16
231,Hearst,49.6835,-83.6665,53.85,54,100,4.99
232,Novobiryusinskiy,56.9578,97.7076,39.52,36,99,10.63
233,Saint-Pierre,-21.3393,55.4781,77.92,61,0,4.61
234,Clyde River,70.4692,-68.5914,21.43,93,100,25.32
235,Bairiki,1.3292,172.9752,84.2,79,20,13.8
236,Zvishavane,-20.3267,30.0665,60.21,68,12,2.95
237,Alofi,-19.0595,-169.9187,76.89,88,39,9.22
238,Sao Felix Do Xingu,-6.6447,-51.995,70.9,91,4,0.58
239,Ibra,22.6906,58.5334,87.24,24,0,4.25
240,Omboue,-1.5746,9.2618,76.8,93,75,5.5
241,Faanui,-16.4833,-151.75,82.33,73,15,11.56
242,Lompoc,34.6391,-120.4579,51.78,67,0,20.71
243,Bilibino,68.0546,166.4372,28.67,88,100,9.53
244,Guerrero,17.6667,-100.0,72.18,74,5,6.44
245,Alyangula,-13.8483,136.4192,86.31,67,23,11.9
246,Salalah,17.0151,54.0924,86.09,66,40,1.14
247,Talnakh,69.4865,88.3972,24.21,90,100,14.16
248,Del Monte,14.6418,121.0177,91.94,61,60,8.01
249,Roswell,34.0232,-84.3616,62.28,84,0,0.0
250,Dunedin,-45.8742,170.5036,55.8,80,97,4.0
251,Hualmay,-11.0964,-77.6139,64.65,91,52,7.36
252,Berlevag,70.8578,29.0864,33.8,80,100,17.27
253,Del Rio,29.3627,-100.8968,91.8,46,0,17.27
254,Faya,18.3851,42.4509,66.31,47,0,1.99
255,Chuy,-33.6971,-53.4616,56.25,93,0,5.86
256,Cidreira,-30.1811,-50.2056,64.44,84,0,11.56
257,Natal,-5.795,-35.2094,75.42,88,75,6.91
258,Rabo De Peixe,37.8,-25.5833,58.28,88,20,6.91
259,Thompson,55.7435,-97.8558,48.36,49,40,4.61
260,Beloha,-25.1667,45.05,69.3,83,23,0.36
261,Turkistan,43.0,68.0,81.5,29,28,18.12
262,Manta,-0.95,-80.7333,73.58,88,64,9.44
263,Gemena,3.25,19.7667,69.4,99,100,1.01
264,Nome,64.5011,-165.4064,32.16,93,100,23.02
265,Zhicheng,30.2956,111.5047,59.47,70,100,4.45
266,Acapulco,16.8634,-99.8901,78.62,83,40,5.75
267,Mayo,38.8876,-76.5119,49.98,81,0,8.05
268,Severo-Kurilsk,50.6789,156.125,37.81,97,100,15.75
269,Ola,59.5833,151.2833,48.15,65,100,15.52
270,Talcahuano,-36.7167,-73.1167,55.08,94,100,3.44
271,Havre-Saint-Pierre,50.2334,-63.5986,37.4,93,0,4.61
272,Kerrobert,51.9168,-109.1348,42.85,59,95,5.41
273,Mendi,-6.1761,143.6513,68.68,82,66,3.8
274,Kittery,43.0881,-70.7362,44.15,71,75,4.61
275,Anderson,34.5334,-82.6499,60.21,70,100,13.8
276,Stepantsevo,56.1314,41.7032,44.08,94,100,8.5
277,Davila,18.4726,120.5763,89.58,67,77,5.97
278,Portlethen,57.0547,-2.1307,51.94,95,100,12.66
279,Upernavik,72.7868,-56.1549,5.85,76,18,5.3
280,Sao Filipe,14.8961,-24.4956,70.63,81,5,11.92
281,Hambantota,6.1241,81.1185,86.67,71,99,22.01
282,Decatur,39.8403,-88.9548,64.15,77,40,11.5
283,Aswan,24.0934,32.907,81.48,15,65,5.57
284,Ventanas,-1.45,-79.4667,75.09,90,73,1.81
285,Rurrenabaque,-14.4413,-67.5278,70.03,86,46,1.48
286,Chizhou,30.6578,117.4831,61.92,82,100,7.92
287,Giyani,-23.3025,30.7187,61.7,86,55,6.08
288,Palu,-0.8917,119.8707,84.9,87,100,3.76
289,Gushi,34.6425,109.5843,52.54,86,100,6.42
290,Sur,22.5667,59.5289,93.36,32,0,6.42
291,Necochea,-38.5473,-58.7368,57.09,78,84,8.08
292,Jieshou,33.2634,115.3611,60.4,41,100,11.1
293,Mahibadhoo,3.7833,72.9667,83.25,79,98,18.21
294,Yelizovo,53.1873,158.3805,41.14,86,75,18.01
295,Denpasar,-8.65,115.2167,89.26,74,20,10.36
296,Pavilosta,56.8879,21.1859,28.31,59,53,3.18
297,Healdsburg,38.6105,-122.8692,51.06,66,0,8.05
298,Broken Hill,-31.95,141.4333,60.96,41,36,11.72
299,Laguna,38.421,-121.4238,54.01,48,0,5.75
300,Sasvad,18.3333,74.0333,87.31,34,97,13.18
301,Camabatela,-8.1881,15.375,63.12,84,7,3.44
302,Riyadh,24.6877,46.7219,75.34,20,0,6.17
303,Gerash,27.6652,54.1371,77.14,10,0,10.56
304,Port-Gentil,-0.7193,8.7815,80.46,84,100,11.03
305,Sibolga,1.7427,98.7792,86.94,63,96,3.44
306,Opuwo,-18.0607,13.84,60.58,46,0,3.38
307,Richards Bay,-28.783,32.0377,62.37,84,45,7.07
308,Atar,20.5169,-13.0499,87.82,23,86,7.96
309,Tura,25.5198,90.2201,89.74,46,11,1.72
310,Bronnoysund,65.4625,12.1997,39.2,93,75,20.0
311,Henties Bay,-22.116,14.2845,58.21,78,0,4.9
312,Champerico,14.3,-91.9167,83.91,75,99,5.3
313,Gornopravdinsk,60.05,69.9,55.78,67,63,6.06
314,Rawlins,41.7911,-107.2387,35.35,93,100,6.91
315,Naze,28.3667,129.4833,79.72,81,95,4.23
316,Mehamn,71.0357,27.8492,33.75,80,40,10.36
317,Polunochnoye,60.8697,60.4153,56.46,46,10,6.44
318,Garissa,-0.4536,39.6401,77.63,69,34,12.71
319,Longyearbyen,78.2186,15.6401,10.8,78,53,9.8
320,Tarakan,3.3,117.6333,80.1,89,75,2.3
321,Ilulissat,69.2167,-51.1,7.0,97,20,7.76
322,Floro,61.5996,5.0328,48.96,53,0,13.8
323,Yanam,16.7333,82.2167,89.64,56,100,11.54
324,Airai,-8.9266,125.4092,73.9,56,18,5.57
325,Kavieng,-2.5744,150.7967,85.66,66,97,17.09
326,Vysokogornyy,50.1167,139.15,46.49,63,93,14.67
327,Jieshi,22.8134,115.8257,75.47,77,99,8.19
328,Yurino,56.2942,46.3039,52.48,60,52,11.39
329,Alepe,5.5004,-3.6631,82.27,96,76,1.61
330,Malampaka,-3.1333,33.5333,63.14,79,99,4.25
331,Kaitangata,-46.2817,169.8464,53.01,94,99,7.02
332,Terney,45.0503,136.6092,62.22,30,57,11.5
333,Skjervoy,70.0311,20.9714,33.8,72,100,17.47
334,Deputatskiy,69.3,139.9,22.95,92,100,4.27
335,Ketchikan,55.3422,-131.6461,55.87,47,20,4.61
336,Sazonovo,59.0919,35.2268,37.45,80,87,7.61
337,Leningradskiy,69.3833,178.4167,29.3,88,100,17.47
338,Nuristan,35.3,70.8333,51.66,31,0,3.18
339,Rumford,44.5537,-70.5509,46.2,69,98,1.77
340,Katsuura,35.1333,140.3,64.0,85,100,9.51
341,Saint-Augustin,51.226,-58.6502,33.35,82,15,7.43
342,Yekaterinogradskaya,43.7635,44.2317,51.67,74,100,4.9
343,Sangar,63.9242,127.4739,37.24,84,100,9.57
344,Tual,-5.6667,132.75,83.66,79,99,9.46
345,Toora-Khem,52.4675,96.11,38.08,30,100,9.4
346,San Miguel,13.4833,-88.1833,83.86,74,20,2.3
347,Solnechnyy,50.7214,136.6319,56.16,48,15,10.8
348,Paysandu,-32.3214,-58.0756,54.88,91,6,5.08
349,Bontang,0.1333,117.5,85.71,74,71,4.72
350,Jacareacanga,-6.2222,-57.7528,72.93,97,98,2.06
351,Lucapa,-8.4192,20.7447,65.05,75,3,3.69
352,Si Sa Ket,14.8333,104.3333,89.01,53,58,7.14
353,Saint George,37.1041,-113.5841,72.19,10,0,34.52
354,Kysyl-Syr,63.8986,122.7617,29.61,71,100,12.37
355,Torbay,47.6666,-52.7314,35.28,87,40,6.91
356,Calvinia,-31.4707,19.776,49.59,57,86,4.45
357,Santa Marta,11.2408,-74.199,84.88,74,75,5.99
358,Narsaq,60.9167,-46.05,41.22,86,59,1.03
359,Mabaruma,8.2,-59.7833,72.88,98,49,2.42
360,Husavik,66.0449,-17.3389,42.84,90,100,5.35
361,Severnoye,56.3491,78.3619,53.65,51,88,4.99
362,Volchikha,52.0333,80.3833,56.71,41,11,9.86
363,Hailey,43.5196,-114.3153,30.99,66,29,5.99
364,Lamu,-2.2717,40.902,79.02,84,52,13.0
365,La Primavera,5.4906,-70.4092,76.35,89,82,2.91
366,Vao,-22.6667,167.4833,74.73,66,100,19.19
367,Bustamante,26.5333,-100.5,87.75,52,34,5.79
368,Ahuimanu,21.4447,-157.8378,78.51,74,100,14.97
369,Golden,39.7555,-105.2211,71.15,26,20,14.97
370,Vanimo,-2.6741,141.3028,86.85,67,100,10.6
371,Hobbs,32.7026,-103.136,79.2,6,20,11.5
372,Pitea,65.3172,21.4794,37.49,74,64,4.72
373,Le Mars,42.7942,-96.1656,60.76,100,100,13.8
374,Achinsk,56.2694,90.4993,42.82,31,36,11.39
375,Ixtapa,20.7,-105.2,76.23,83,20,0.0
376,Asyut,27.181,31.1837,80.98,17,40,5.75
377,Keetmanshoop,-26.5833,18.1333,49.39,41,41,7.49
378,Nara,34.6851,135.8049,62.49,36,99,5.93
379,Kilindoni,-7.9139,39.6668,80.92,75,95,15.41
380,Batticaloa,7.7102,81.6924,88.05,63,90,10.6
381,Portland,45.5234,-122.6762,44.73,91,99,3.0
382,Jiblah,13.9216,44.1467,67.69,61,18,1.99
383,Santa Rosalia,27.3167,-112.2833,69.42,38,0,11.63
384,Guhagar,17.4842,73.1929,88.79,59,95,12.24
385,Salihorsk,52.7876,27.5415,39.15,73,32,9.35
386,Porto Da Folha,-9.9172,-37.2783,70.79,87,13,3.22
387,Channel-Port Aux Basques,47.5702,-59.1367,36.1,64,0,4.21
388,Cockburn Town,21.4612,-71.1419,78.73,82,0,10.69
389,Fort Nelson,58.8053,-122.7002,31.59,86,100,12.66
390,Yatou,37.15,122.3833,60.31,53,96,9.71
391,Fredericton,45.9454,-66.6656,34.83,74,0,3.44
392,Pisco,-13.7,-76.2167,65.01,88,3,4.61
393,Dali,25.7,100.1833,74.3,45,19,5.91
394,Cap Malheureux,-19.9842,57.6142,77.47,74,1,3.0
395,Kortkeros,61.8106,51.5806,57.2,64,85,10.83
396,Ulaanbaatar,47.9077,106.8832,37.53,60,75,17.9
397,Quchan,37.106,58.5095,53.37,88,97,10.13
398,Pineville,31.3224,-92.4343,78.69,80,0,8.05
399,Talas,38.6908,35.5538,39.87,100,40,0.0
400,San Francisco,37.7749,-122.4194,53.04,68,3,15.99
401,Salekhard,66.53,66.6019,35.11,100,100,8.16
402,Tarboro,35.8968,-77.5358,49.91,81,100,5.75
403,Zarate,-34.0981,-59.0286,54.84,91,91,1.99
404,Wuzhou,23.4833,111.3167,76.71,77,100,3.58
405,Suileng,47.25,127.0833,73.99,16,0,15.01
406,Coquimbo,-29.9533,-71.3436,53.33,87,0,5.75
407,Guantanamo,20.1444,-75.2092,80.17,92,0,1.34
408,Primorsk,46.7348,36.3443,51.98,60,0,7.31
409,Elat,29.5581,34.9482,66.04,52,0,6.91
410,Kunming,25.0389,102.7183,69.73,56,75,15.66
411,Rundu,-17.9333,19.7667,55.38,38,0,5.32
412,Yumen,40.2833,97.2,72.3,25,60,3.62
413,Awjilah,29.1081,21.2869,64.63,42,0,9.48
414,Maragogi,-9.0122,-35.2225,75.15,87,36,7.29
415,Biak,-0.9131,122.8766,83.17,76,95,6.8
416,Matanzas,23.0411,-81.5775,75.96,94,40,3.44
417,Takoradi,4.8845,-1.7554,78.48,88,100,5.14
418,Meulaboh,4.1363,96.1285,84.76,72,100,4.18
419,Lata,40.1629,-8.3327,56.7,77,14,3.09
420,Iranshahr,27.2025,60.6848,91.74,19,0,4.61
421,Egvekinot,66.3167,-179.1667,29.21,81,100,6.76
422,Saint Anthony,45.0205,-93.218,58.93,70,100,16.11
423,Moelv,60.9333,10.7,35.94,56,95,0.98
424,Shuangyang,43.5242,125.6736,71.71,15,0,9.64
425,Batagay-Alyta,67.8006,130.4114,26.51,83,100,13.87
426,General Pico,-35.6566,-63.7568,61.83,65,93,4.59
427,Kachiry,53.0675,76.1036,61.99,32,13,6.49
428,Papa,47.33,17.4674,53.53,100,75,0.0
429,Turgutlu,38.4953,27.6997,56.59,77,63,1.3
430,Kununurra,-15.7667,128.7333,87.78,19,1,10.36
431,Barkly West,-28.5354,24.5215,38.48,76,3,3.11
432,Sabzevar,36.2126,57.6819,65.48,52,40,4.61
433,Rovnoye,50.7765,46.0509,50.97,56,94,9.15
434,Along,28.1667,94.7667,88.66,47,18,1.63
435,Te Anau,-45.4167,167.7167,54.57,81,70,3.29
436,Birpur,26.5167,87.0167,91.4,44,7,9.93
437,Kushmurun,52.4503,64.6311,58.96,26,49,19.24
438,Quthing,-30.4,27.7003,44.62,83,6,2.17
439,Isernia,41.6002,14.2382,55.53,93,96,6.62
440,Nanyang,32.9947,112.5328,51.8,76,100,13.89
441,Camana,-16.6228,-72.7111,65.17,89,40,11.16
442,Pochutla,15.7432,-96.4661,79.83,72,51,2.42
443,Saint-Georges,12.0564,-61.7485,80.28,83,75,19.57
444,Charlestown,-32.95,151.6667,69.03,75,9,4.0
445,Moose Factory,51.2585,-80.6094,55.4,37,0,8.05
446,Monrovia,6.3005,-10.7969,77.86,86,100,2.37
447,Kirpilskaya,45.377,39.6931,50.5,68,97,2.71
448,Verkhnevilyuysk,63.4453,120.3167,31.78,77,100,10.45
449,Magadan,59.5667,150.8,47.53,66,100,13.73
450,Kapuskasing,49.4169,-82.4331,57.2,28,75,12.66
451,Tadine,-21.55,167.8833,76.24,61,99,13.98
452,Terrace,54.5163,-128.6035,48.11,81,75,3.44
453,Pedasi,7.5333,-80.0333,79.07,78,17,7.94
454,Buraydah,26.326,43.975,72.05,20,1,7.23
455,Lae,-6.7221,146.9847,90.27,68,58,7.29
456,Banda Aceh,5.5577,95.3222,86.47,67,100,6.2
457,Pathein,16.7833,94.7333,81.43,80,97,9.01
458,The Valley,18.217,-63.0578,80.46,80,27,18.52
459,Iwanai,42.9744,140.5089,54.28,59,26,16.08
460,Muravlenko,63.7898,74.523,36.41,100,100,11.7
461,Homer,59.6425,-151.5483,44.49,72,0,18.99
462,Machakos,-1.5167,37.2667,62.55,94,88,2.21
463,Kieta,-6.2167,155.6333,85.1,67,67,4.09
464,Lensk,60.7253,114.9278,38.19,67,99,10.33
465,Hopelchen,19.7667,-89.85,85.33,62,79,6.53
466,Tilichiki,60.4667,166.1,33.91,89,100,2.66
467,Marienburg,54.0359,19.0266,41.88,81,9,5.84
468,Slonim,53.0867,25.3219,37.89,73,83,7.54
469,Lappeenranta,61.0587,28.1887,37.8,63,0,3.44
470,Qasigiannguit,68.8193,-51.1922,8.26,93,6,7.2
471,Piterka,50.6803,47.4454,52.23,64,55,11.36
472,Baghmara,23.795,86.2085,91.4,40,0,8.48
473,Kokopo,-4.352,152.2633,85.44,62,60,4.09
474,Pau,43.4167,-0.5833,56.03,93,40,3.44
475,Luis Correia,-2.8792,-41.6669,77.05,91,99,6.85
476,Rojhan,28.6868,69.9534,101.55,14,0,14.27
477,Bathsheba,13.2167,-59.5167,79.41,83,40,13.8
478,Adrar,20.5022,-10.0711,82.33,13,69,5.64
479,Midland,31.9974,-102.0779,83.07,8,0,4.61
480,Hermiston,45.8404,-119.2895,55.22,58,0,10.36
481,Grand Forks,47.9417,-97.4337,57.13,88,100,17.27
482,Mount Isa,-20.7333,139.5,82.17,54,75,6.91
483,Mackenzie,55.2999,-123.1698,41.22,60,100,4.61
484,Samarai,-10.6167,150.6667,83.66,78,87,12.93
485,Dwarka,22.2394,68.9678,84.52,67,0,13.71
486,Bengkulu,-3.8004,102.2655,86.74,59,60,2.89
487,Moerai,-22.4333,-151.3333,78.64,72,57,8.41
488,Innisfail,-17.5333,146.0333,77.45,89,56,9.98
489,Lira,2.235,32.9097,63.77,97,95,1.77
490,Ippy,6.2679,21.2247,72.23,86,100,5.75
491,Sfantu Gheorghe,45.8667,25.7833,55.27,77,78,0.96
492,Hirara,24.8,125.2833,76.86,94,75,10.36
493,Palmer,42.1584,-72.3287,44.42,57,0,3.44
494,Vargem Grande,-3.5431,-43.9158,72.93,100,100,2.53
495,Kjollefjord,70.9457,27.3465,33.85,80,40,10.36
496,Mpika,-11.8343,31.4529,56.53,90,12,5.5
497,Lashma,54.9321,41.1438,48.09,97,100,6.98
498,Salinopolis,-0.6136,-47.3561,75.36,91,100,3.74
499,Kharitonovo,61.4009,47.4978,38.8,95,100,10.29
500,Whitehorse,60.7161,-135.0538,50.77,34,40,9.22
501,Columbus,39.9612,-82.9988,58.19,56,75,8.05
502,Ambanja,-13.6833,48.45,75.13,89,9,3.67
503,Dubrovytsya,51.5744,26.565,43.86,84,96,10.51
504,Kuna,43.4918,-116.4201,43.61,69,100,9.22
505,Diamantina,-18.2494,-43.6003,57.09,90,42,5.46
506,Lincoln,40.8,-96.667,68.29,86,96,5.99
507,Evensk,61.95,159.2333,32.74,89,100,0.56
508,Do Gonbadan,30.3586,50.7981,68.09,28,0,2.3
509,Ambilobe,-13.2,49.05,72.41,87,19,2.73
510,Athabasca,54.7169,-113.2854,36.01,78,70,11.41
511,Buala,-8.145,159.5921,83.19,79,96,8.9
512,San Pedro,14.35,121.0167,91.35,60,35,13.2
513,Port Blair,11.6667,92.75,86.04,79,100,9.22
514,Xai-Xai,-25.0519,33.6442,67.37,92,96,2.64
515,Doha,25.2867,51.5333,82.38,44,0,16.11
516,Peniche,39.3558,-9.3811,58.1,94,9,8.79
517,Marfino,55.7028,37.3822,46.31,70,0,13.42
518,Forio,40.7342,13.8646,60.46,85,100,1.01
519,Karachi,24.9056,67.0822,85.82,66,75,14.97
520,Edmundston,47.3737,-68.3251,49.33,55,0,3.44
521,Teya,60.3778,92.6267,30.78,79,100,7.4
522,Mweka,-4.85,21.5667,68.56,95,100,1.43
523,Mianwali,32.5741,71.5264,100.78,11,0,4.09
524,Wanaka,-44.7,169.15,58.26,66,73,0.89
525,Santa Fe,-31.6333,-60.7,60.01,87,100,5.79
526,Uruacu,-14.5247,-49.1408,71.06,60,32,2.82
527,Tucumcari,35.1717,-103.725,82.24,7,0,20.71
528,Kodinsk,58.6881,99.1844,37.22,36,77,8.61
529,Taltal,-25.4,-70.4833,61.72,67,0,3.8
530,Wanxian,30.8039,108.3897,74.28,78,100,2.68
531,Luanda,-8.8368,13.2343,77.0,88,75,5.75
532,San Isidro,-12.1167,-77.05,67.01,82,100,11.5
533,Saquena,-4.6667,-73.5167,72.01,99,88,1.41
534,Acari,-15.4311,-74.6158,66.9,82,26,5.32
535,Bama,11.5221,13.6856,87.75,35,24,6.76
536,Maceio,-9.6658,-35.7353,72.84,94,20,3.44
537,Casper,42.8666,-106.3131,51.73,43,100,10.36
538,Xining,36.6167,101.7667,61.23,35,2,2.35
539,La Paz,-16.5,-68.15,35.58,100,20,3.44
540,Aitape,-3.1374,142.3475,86.34,72,86,10.38
541,Jalu,29.0331,21.5482,64.9,41,0,9.53
542,San Quintin,30.4833,-115.95,57.49,78,0,20.11
543,Mosetse,-20.75,26.65,57.92,44,0,5.66
544,Waalwijk,51.6897,5.0172,47.23,69,8,2.3
545,Coihaique,-45.5752,-72.0662,43.41,81,20,6.91
546,Panguna,-6.3164,155.4848,80.46,68,73,3.33
547,Mokhotlong,-29.2894,29.0675,36.55,91,5,0.87
548,Wainwright,52.839,-110.8572,40.95,58,100,6.69
549,Porto Novo,6.4965,2.6036,78.4,90,89,4.32
550,Miles City,46.4083,-105.8406,45.57,81,0,6.91
551,Victor Harbor,-35.5667,138.6167,65.68,59,100,2.53
552,Renqiu,38.6989,116.0936,58.82,49,100,3.47
553,Surt,31.2089,16.5887,62.89,79,1,5.3
554,Churachandpur,24.3333,93.6667,80.55,56,89,1.83
555,Kathu,7.9178,98.3332,85.69,99,100,8.12
556,Porto Walter,-8.2686,-72.7439,71.51,88,41,2.51
557,Xinqing,48.2333,129.5,70.7,22,1,12.46
558,Bilma,18.6853,12.9164,85.46,17,44,13.27
559,Ginir,7.1333,40.7,66.4,64,12,0.98
560,Dusi,12.7667,79.6833,95.4,37,100,11.39
561,Wabash,40.7978,-85.8205,57.61,67,100,10.63
562,Gravdal,68.1214,13.5031,38.37,93,100,12.08
563,Sistranda,63.7256,8.834,42.76,73,100,10.36
564,Karpinsk,59.7654,60.0085,59.88,37,6,8.32
565,Olinda,-8.0089,-34.8553,74.93,94,75,6.91
566,Islamkot,24.6997,70.177,97.2,24,0,12.84
567,Matagami,49.7502,-77.6328,35.71,64,0,0.0
568,Cozumel,20.5083,-86.9458,79.95,88,2,11.68
569,Teguldet,57.3064,88.1667,45.59,31,3,8.57
570,Kihei,20.785,-156.4656,78.82,73,40,17.27
571,Isla Vista,34.4133,-119.861,58.35,48,0,16.11
572,Bayaguana,18.7564,-69.6362,72.99,96,13,1.74
573,Lexington Park,38.2668,-76.4538,53.28,60,20,13.8
574,Vila Velha,-20.3297,-40.2925,69.75,94,100,3.44
575,Noumea,-22.2763,166.4572,78.78,99,96,13.96
576,Durban,-29.8579,31.0292,63.01,78,56,3.0
577,Shelburne,44.0787,-80.2041,48.65,57,58,7.72
578,Campbellsville,37.3434,-85.3419,57.94,60,100,6.82
579,Antalaha,-14.9003,50.2788,78.26,75,3,4.94
580,Tombouctou,20.0,-3.0,74.68,10,0,11.59
581,Kang,-23.6752,22.7876,44.42,42,0,6.69
582,Yar-Sale,66.8333,70.8333,36.1,100,100,11.72
583,Harper,4.375,-7.7169,77.23,87,99,2.77
584,Saint-Joseph,-21.3667,55.6167,75.58,73,18,8.03
585,Tambilil,5.9622,124.6697,84.09,83,100,0.92
586,Fort Morgan,40.2503,-103.8,70.45,30,0,25.32
587,Sanandaj,35.3144,46.9923,48.22,57,0,2.3
588,Bria,6.5423,21.9863,71.51,85,100,1.57
589,Sisimiut,66.9395,-53.6735,28.02,66,26,4.34
590,Mill Valley,37.906,-122.545,52.74,70,3,5.01
591,Yokadouma,3.5167,15.05,69.89,99,100,1.74
592,Kirakira,-10.4544,161.9205,83.26,78,88,9.91
593,Jijiga,9.35,42.8,71.31,49,28,4.36
594,Ipameri,-17.7219,-48.1597,69.46,67,86,4.56
595,Aginskoye,51.1,114.53,40.89,85,100,23.91
596,Kiunga,-6.1219,141.2906,87.46,69,100,2.44
597,Vrangel,42.7297,133.0839,55.65,52,3,14.25
598,Tessalit,20.1986,1.0114,72.77,9,0,8.79
599,Lac Du Bonnet,50.2536,-96.0612,52.3,94,76,10.58
600,Kloulklubed,7.0419,134.2556,73.9,90,100,10.89
601,Qui Nhon,13.7667,109.2333,83.7,71,99,7.36
602,Prince Rupert,54.3161,-130.3201,47.89,87,100,10.36
603,Flinders,-34.5833,150.8552,65.17,80,94,5.99
604,College,64.8569,-147.8028,44.92,67,75,11.5
605,Tiznit,29.5833,-9.5,76.5,12,97,6.55
606,Shieli,44.1667,66.75,83.71,22,89,16.84
607,Anchorage,61.2181,-149.9003,52.93,49,0,9.22
608,Asau,46.4333,26.4,51.96,87,72,3.27
609,Venice,27.0998,-82.4543,77.02,85,0,4.61
610,Sorong,-0.8833,131.25,83.97,77,100,2.46
611,Stejaru,44.7667,28.55,42.01,62,2,1.88
612,Griffith,41.5284,-87.4237,61.05,57,40,11.5
613,Clarence Town,-32.5833,151.7833,71.62,57,12,5.19
614,Santa Isabel Do Rio Negro,-0.4139,-65.0192,73.18,99,99,1.59
615,Crateus,-5.1783,-40.6775,75.24,71,99,1.77
616,Cristalina,-16.7686,-47.6136,63.95,67,60,3.94
617,Nouadhibou,20.931,-17.0347,64.36,92,42,16.2
618,Uberaba,-19.7483,-47.9319,68.58,88,0,4.61
619,Erzin,36.9559,36.2,64.02,61,99,3.02
620,Warrington,53.3925,-2.5802,54.34,81,100,4.61
621,Fairbanks,64.8378,-147.7164,44.94,66,100,11.5
622,Lasa,46.6166,10.7002,52.68,96,97,0.65
623,Chunskiy,56.0815,99.6342,41.68,30,100,11.23
624,Prado,-17.3411,-39.2208,70.34,91,42,7.29
625,Lazaro Cardenas,17.9583,-102.2,75.36,78,4,3.8
626,Rio Grande,-32.035,-52.0986,61.09,91,0,8.12
627,Saquarema,-22.92,-42.5103,70.77,72,70,3.06
628,Bakchar,57.0186,82.0711,52.99,36,2,2.84
629,Pitkyaranta,61.5734,31.4792,38.16,60,21,7.78
630,Sechura,-5.5569,-80.8222,66.81,81,77,15.28
631,Hailar,49.2,119.7,73.92,13,48,26.26
632,Chengde,40.9725,117.9361,70.79,19,63,10.63
633,Mashhad,36.297,59.6062,60.94,72,75,13.8
634,Oranjemund,-28.55,16.4333,55.45,67,57,5.59
635,Vestmannaeyjar,63.4427,-20.2734,45.81,85,81,15.66
636,Sainte-Rose,16.3324,-61.6979,77.04,88,20,3.44
637,Kahului,20.8947,-156.47,78.82,70,40,17.27
638,Vagur,61.4732,-6.8119,46.8,97,100,18.1
639,Joensuu,62.6012,29.7632,36.09,64,0,3.44
640,Olivet,47.8622,1.8991,52.99,89,0,4.61
641,Savannah Bight,16.45,-85.85,82.65,84,5,25.23
642,Waingapu,-9.6567,120.2641,86.81,59,10,17.34
643,Ushumun,52.7833,126.5333,77.86,12,36,14.47
644,Aden,12.7794,45.0367,84.04,70,3,2.3
645,Yaizu,34.8667,138.3333,69.49,60,75,3.44
646,Belyy Yar,53.6039,91.3903,48.85,19,0,8.95
647,Dicabisagan,17.0818,122.4157,87.37,63,54,7.45
648,Katherine,-14.4667,132.2667,93.52,26,0,8.05
649,Klaksvik,62.2266,-6.589,47.32,98,100,17.63
650,Buzmeyin,38.0507,58.2056,62.33,88,100,6.91
651,Hershey,40.2859,-76.6503,46.38,78,0,4.61
652,Grand Island,40.925,-98.342,66.49,91,55,4.0
653,Puerto Ayacucho,5.6639,-67.6236,74.93,93,100,3.29
654,Auchel,50.5034,2.4735,46.89,95,1,2.42
655,Margate,51.3813,1.3862,47.3,83,2,5.17
656,Killybegs,54.6333,-8.45,53.17,91,100,23.04
657,Sioux Lookout,50.1001,-91.917,42.87,100,100,5.75
658,Malakal,9.5334,31.6605,83.79,56,100,5.95
659,Sibu,2.3,111.8167,82.71,78,40,4.61
660,Krusevac,43.58,21.3339,46.76,76,71,1.19
661,Svetlogorsk,52.6333,29.7333,43.32,74,31,11.05
662,Raudeberg,61.9875,5.1352,48.96,38,100,19.55
663,Taybad,34.74,60.7756,70.23,60,4,20.62
664,Mascota,20.5167,-104.7833,62.31,38,89,2.39
665,Chapais,49.7834,-74.8492,29.98,87,32,4.36
666,Kosonsoy,41.2561,71.5508,84.4,24,3,3.51
667,South Lake Tahoe,38.9332,-119.9844,30.25,82,100,8.05
668,Caledonia,42.8078,-87.9242,57.52,65,0,14.97
669,Candido Mendes,-1.4467,-45.7167,73.35,98,99,3.2
670,Komatipoort,-25.4332,31.9548,61.48,92,75,4.32
671,Pyaozerskiy,65.8333,31.1667,38.37,64,61,6.71
672,Kayes,14.0,-11.0,91.35,31,98,5.66
673,Tiarei,-17.5333,-149.3333,80.62,77,22,8.9
674,Port-Cartier,50.0334,-66.8654,37.51,90,50,4.74
675,Zheleznodorozhnyy,55.7503,38.0042,46.15,77,100,11.5
676,Zhezkazgan,47.8043,67.7144,55.38,30,20,22.37
677,Lamar,33.6668,-95.5836,78.78,83,0,11.5
678,Pontianak,-0.0333,109.3333,82.38,78,20,3.44
679,Waw,7.7029,27.9953,77.09,74,95,2.26
680,Jiuquan,39.7432,98.5174,73.62,24,85,5.64
681,Bloemhof,-27.6469,25.607,46.92,61,0,1.52
682,Kalaleh,37.3807,55.4916,56.8,100,100,4.61
683,Presidencia Roque Saenz Pena,-26.7852,-60.4388,62.76,78,47,5.75
684,Puerto Carreno,6.189,-67.4859,76.41,90,99,4.76
685,Dalbandin,28.8947,64.4101,96.35,9,1,7.9
686,Mishelevka,52.8575,103.1719,40.39,42,100,15.64
687,Northam,51.0333,-4.2167,50.61,81,100,9.51
688,Suhbaatar,50.2314,106.2078,46.09,31,98,8.88
689,Vidim,56.4088,103.1106,38.79,32,100,11.23
690,Charters Towers,-20.1,146.2667,74.08,78,100,13.11
691,Newton,42.337,-71.2092,45.09,70,0,9.22
692,Lagunas,-5.2269,-75.6753,71.87,99,70,2.33
693,Ust-Maya,60.4167,134.5333,38.53,97,100,5.01
694,Magadi,12.9667,77.2333,87.76,43,100,9.95
695,Yemelyanovo,56.1681,92.6767,45.41,26,0,15.66
696,Batesville,35.7698,-91.641,72.01,73,100,6.91
697,Vilhena,-12.7406,-60.1458,68.23,78,47,1.5
698,Angoche,-16.2325,39.9086,74.44,79,46,5.08
699,Talcher,20.95,85.2167,97.18,38,61,10.16
700,Punta Alta,-38.8759,-62.0736,56.71,75,100,8.79
701,Terra Santa,-2.1042,-56.4869,73.44,98,88,2.46
702,Ancud,-41.8697,-73.8203,46.8,91,44,5.21
703,Tierranueva,21.6833,-100.5667,75.43,45,62,4.83
704,Emerald,-23.5333,148.1667,75.34,64,75,8.05
705,Lardos,36.0942,28.0157,64.22,67,47,3.85
706,Narasannapeta,18.4167,84.05,84.58,72,100,16.84
